{
  "restaurants": {
    "hibachi": {
      "count": 0,
      "sum": 0,
      "score": 0,
      "id": 0,
      "name": "Hibachi & Co",
      "name2": "hibachi",
      "address": "155 E Franklin St, Chapel Hill, NC 27514",
      "hours": "11AM-10PM",
      "img": "r_icons/hibachi.png",
      "color": "black",
      "backgroundColor": "#E13C28",
      "kosher_options": false,
      "gf": true,
      "nut_friendly": true,
      "vegan": false
    },
    "moes": {
      "count": 0,
      "sum": 0,
      "score": 0,
      "id": 1,
      "name": "Moe's Southwest Grill",
      "name2": "moes",
      "address": "110 W Franklin St, Chapel Hill, NC 27516",
      "hours": "11AM-10PM",
      "img": "r_icons/moes.png",
      "color": "black",
      "backgroundColor": "#B4F9BB",
      "kosher_options": false,
      "gf": false,
      "nut_friendly": true,
      "vegan": false
    },
    "chipotle": {
      "count": 0,
      "sum": 0,
      "score": 0,
      "id": 2,
      "name": "Chipotle Mexican Grill",
      "name2": "chipotle",
      "address": "301 W Franklin St, Chapel Hill, NC 27516",
      "hours": "11AM-10PM",
      "img": "r_icons/chipoltle.png",
      "color": "black",
      "backgroundColor": "#F9B4B4",
      "kosher_options": true,
      "gf": true,
      "nut_friendly": true,
      "vegan": false
    },
    "pizzapress": {
      "count": 0,
      "sum": 0,
      "score": 0,
      "id": 3,
      "name": "The Pizza Press",
      "name2": "pizzapress",
      "address": "133 W Franklin St Suite 120 Suite 120, Chapel Hill, NC 27516",
      "hours": "11AM-10PM",
      "img": "r_icons/pizzapress.png",
      "color": "black",
      "backgroundColor": "#DED9D7",
      "kosher_options": false,
      "gf": false,
      "nut_friendly": true,
      "vegan": false
    },
    "banditos": {
      "count": 0,
      "sum": 0,
      "score": 0,
      "id": 4,
      "name": "Bandito's Mexican Cafe",
      "name2": "banditos",
      "address": "159 1/2 E Franklin St, Chapel Hill, NC 27514",
      "hours": "11AM-10PM",
      "img": "r_icons/banditos.jpg",
      "color": "black",
      "backgroundColor": "#F8F9B4",
      "kosher_options": false,
      "gf": true,
      "nut_friendly": true,
      "vegan": false
    },
    "mong": {
      "count": 0,
      "sum": 0,
      "score": 0,
      "id": 5,
      "name": "Ms. Mong",
      "name2": "mong",
      "address": "163 E Franklin St, Chapel Hill, NC 27514",
      "hours": "11AM-10PM",
      "img": "r_icons/mong.png",
      "color": "black",
      "backgroundColor": "#B8B4F9",
      "kosher_options": false,
      "gf": false,
      "nut_friendly": false,
      "vegan": false
    },
    "suttons": {
      "count": 0,
      "sum": 0,
      "score": 0,
      "id": 6,
      "name": "Sutton's Drug Store",
      "name2": "suttons",
      "address": "159 E Franklin St, Chapel Hill, NC 27514",
      "hours": "11AM-10PM",
      "img": "r_icons/suttons.jpg",
      "color": "black",
      "backgroundColor": "#E2B4F9",
      "kosher_options": false,
      "gf": false,
      "nut_friendly": true,
      "vegan": false
    },
    "panera": {
      "count": 0,
      "sum": 0,
      "score": 0,
      "id": 7,
      "name": "Panera Bread",
      "name2": "panera",
      "address": "213 W Franklin St, Chapel Hill, NC 27516",
      "hours": "11AM-10PM",
      "img": "r_icons/panera.png",
      "color": "black",
      "backgroundColor": "#F9D9B4 ",
      "kosher_options": false,
      "gf": false,
      "nut_friendly": false,
      "vegan": false
    },
    "chabad": {
      "count": 0,
      "sum": 0,
      "score": 0,
      "id": 8,
      "name": "Chabad House",
      "name2": "chabad",
      "address": "Somewhere on Malette St.",
      "hours": "11AM-10PM",
      "img": "r_icons/chabad.jpg",
      "color": "black",
      "backgroundColor": "#B4E6F9",
      "kosher_options": true,
      "gf": false,
      "nut_friendly": true,
      "vegan": true
    },
    "cosmic": {
      "count": 0,
      "sum": 0,
      "score": 0,
      "id": 9,
      "name": "Cosmic Cantina",
      "name2": "cosmic",
      "address": "Franklin St.",
      "hours": "11AM-10PM",
      "img": "r_icons/restaurant_cosmic.jpg",
      "color": "black",
      "backgroundColor": "#B4E6F9",
      "kosher_options": true,
      "gf": true,
      "nut_friendly": true,
      "vegan": true
    },
<<<<<<< HEAD
    "cp": {
      "count": 0,
      "sum": 0,
      "score": 0,
      "id": 10,
      "name": "Curry Point Express",
      "name2": "cp",
      "address": "Franklin St.",
      "hours": "11AM-10PM",
      "img": "r_icons/curry_point.png",
      "color": "black",
      "backgroundColor": "#B4E6F9",
      "kosher_options": true,
      "gf": false,
      "nut_friendly": false,
      "vegan": false
    },
    "sup_dogs": {
      "count": 0,
      "sum": 0,
      "score": 0,
      "id": 11,
      "name": "Sup Dogs",
      "name2": "sup_dogs",
      "address": "Franklin St.",
      "hours": "11AM-10PM",
      "img": "r_icons/sup_dogs.png",
      "color": "black",
      "backgroundColor": "#B4E6F9",
      "kosher_options": true,
      "gf": true,
      "nut_friendly": true,
      "vegan": false
    },
    "lotsa": {
      "count": 0,
      "sum": 0,
      "score": 0,
      "id": 12,
      "name": "Lotsa Stone Fired Pizza",
      "name2": "lotsa",
      "address": "Franklin St.",
      "hours": "11AM-10PM",
      "img": "r_icons/lotsa.jpg",
      "color": "black",
      "backgroundColor": "#B4E6F9",
      "kosher_options": true,
      "gf": true,
      "nut_friendly": true,
      "vegan": false
=======
    "undefined": {
      "ratings": [
        "1",
        "2"
      ],
      "avg": 10
    },
    "Lotsa Stone Fired Pizza": {
      "ratings": []
    },
    "Moe's Southwest Grill": {
      "ratings": []
>>>>>>> 930a29630f76ce582857c6a1a500fc556a95d1cb
    }
  }
}